[{"id": "1_서천터미널", "anchors": [{"name": "서천터미널", "lat": 36.07552, "lng": 126.6971}, {"name": "배다리", "lat": 36.15492, "lng": 126.5715}, {"name": "동백정입구.발전소", "lat": 36.1429, "lng": 126.5003}]}, {"id": "1(하)_마량리(동백)", "anchors": [{"name": "동백정입구.발전소", "lat": 36.1429, "lng": 126.5003}, {"name": "춘장대", "lat": 36.16327, "lng": 126.52709}, {"name": "배다리", "lat": 36.15492, "lng": 126.5715}, {"name": "서천터미널", "lat": 36.07552, "lng": 126.6971}]}, {"id": "2_서천터미널", "anchors": [{"name": "서천터미널", "lat": 36.07552, "lng": 126.6971}, {"name": "배다리", "lat": 36.15492, "lng": 126.5715}, {"name": "춘장대", "lat": 36.16327, "lng": 126.52709}, {"name": "동백정입구.발전소", "lat": 36.1429, "lng": 126.5003}]}, {"id": "2(하)_마량리(동백)", "anchors": [{"name": "동백정입구.발전소", "lat": 36.1429, "lng": 126.5003}, {"name": "배다리", "lat": 36.15492, "lng": 126.5715}, {"name": "서천터미널", "lat": 36.07552, "lng": 126.6971}]}, {"id": "3_서천터미널", "anchors": [{"name": "서천터미널", "lat": 36.07552, "lng": 126.6971}, {"name": "배다리", "lat": 36.15492, "lng": 126.5715}, {"name": "춘장대", "lat": 36.16327, "lng": 126.52709}, {"name": "춘장대", "lat": 36.16327, "lng": 126.52709}, {"name": "동백정입구.발전소", "lat": 36.1429, "lng": 126.5003}]}, {"id": "3(하)_마량리(동백)", "anchors": [{"name": "동백정입구.발전소", "lat": 36.1429, "lng": 126.5003}, {"name": "홍원항", "lat": 36.1534, "lng": 126.50293}, {"name": "배다리", "lat": 36.15492, "lng": 126.5715}, {"name": "서천터미널", "lat": 36.07552, "lng": 126.6971}]}, {"id": "4_서천터미널", "anchors": [{"name": "서천터미널", "lat": 36.07552, "lng": 126.6971}, {"name": "배다리", "lat": 36.15492, "lng": 126.5715}, {"name": "홍원항", "lat": 36.1534, "lng": 126.50293}, {"name": "동백정입구.발전소", "lat": 36.1429, "lng": 126.5003}]}, {"id": "10_축협세안약국(오창동)", "anchors": [{"name": "서천터미널", "lat": 36.07552, "lng": 126.6971}, {"name": "계동", "lat": 36.06478, "lng": 126.70777}, {"name": "송내", "lat": 36.02814, "lng": 126.71338}, {"name": "국립생태원", "lat": 36.02683, "lng": 126.71948}, {"name": "하구둑", "lat": 36.0131, "lng": 126.75713}, {"name": "롯데몰", "lat": 35.97578, "lng": 126.73945}, {"name": "경장사거리", "lat": 35.9739, "lng": 126.72879}, {"name": "군산시외버스터미널", "lat": 35.97622, "lng": 126.72435}]}, {"id": "11_서천터미널", "anchors": [{"name": "서천터미널", "lat": 36.07552, "lng": 126.6971}, {"name": "화금리", "lat": 36.08581, "lng": 126.70438}, {"name": "싸름매.태월교회", "lat": 36.10228, "lng": 126.70958}, {"name": "서내바지", "lat": 36.11329, "lng": 126.72929}, {"name": "서천터미널", "lat": 36.07552, "lng": 126.6971}]}, {"id": "12_서천터미널", "anchors": [{"name": "서천터미널", "lat": 36.07552, "lng": 126.6971}, {"name": "서천역", "lat": 36.08163, "lng": 126.70804}, {"name": "화금리", "lat": 36.08581, "lng": 126.70438}, {"name": "싸름매.태월교회", "lat": 36.10228, "lng": 126.70958}, {"name": "서내바지", "lat": 36.11329, "lng": 126.72929}, {"name": "서천터미널", "lat": 36.07552, "lng": 126.6971}]}, {"id": "13_서천터미널", "anchors": [{"name": "서천터미널", "lat": 36.07552, "lng": 126.6971}, {"name": "서천역", "lat": 36.08163, "lng": 126.70804}, {"name": "화금리", "lat": 36.08581, "lng": 126.70438}, {"name": "싸름매.태월교회", "lat": 36.10228, "lng": 126.70958}, {"name": "서내바지", "lat": 36.11329, "lng": 126.72929}, {"name": "서천터미널", "lat": 36.07552, "lng": 126.6971}]}, {"id": "14_서천터미널", "anchors": [{"name": "서천터미널", "lat": 36.07552, "lng": 126.6971}, {"name": "서천역", "lat": 36.08163, "lng": 126.70804}, {"name": "화금리", "lat": 36.08581, "lng": 126.70438}, {"name": "싸름매.태월교회", "lat": 36.10228, "lng": 126.70958}, {"name": "서내바지", "lat": 36.11329, "lng": 126.72929}, {"name": "서천터미널", "lat": 36.07552, "lng": 126.6971}]}, {"id": "20_축협세안약국(오창동)", "anchors": [{"name": "서천터미널", "lat": 36.07552, "lng": 126.6971}, {"name": "계동", "lat": 36.06478, "lng": 126.70777}, {"name": "송내", "lat": 36.02814, "lng": 126.71338}, {"name": "신흥아파트", "lat": 36.01653, "lng": 126.68738}]}, {"id": "21_축협세안약국(오창동)", "anchors": [{"name": "서천터미널", "lat": 36.07552, "lng": 126.6971}, {"name": "계동", "lat": 36.06478, "lng": 126.70777}, {"name": "장항역", "lat": 36.03933, "lng": 126.7146}, {"name": "송내", "lat": 36.02814, "lng": 126.71338}, {"name": "신흥아파트", "lat": 36.01653, "lng": 126.68738}, {"name": "세창당", "lat": 36.0113, "lng": 126.69592}, {"name": "신부락", "lat": 36.0122, "lng": 126.69863}, {"name": "장항터미널", "lat": 36.01499, "lng": 126.69893}, {"name": "신흥아파트", "lat": 36.01653, "lng": 126.68738}]}, {"id": "22_축협세안약국(오창동)", "anchors": [{"name": "서천터미널", "lat": 36.07552, "lng": 126.6971}, {"name": "계동", "lat": 36.06478, "lng": 126.70777}, {"name": "장항역", "lat": 36.03933, "lng": 126.7146}, {"name": "송내", "lat": 36.02814, "lng": 126.71338}, {"name": "신흥아파트", "lat": 36.01653, "lng": 126.68738}, {"name": "세창당", "lat": 36.0113, "lng": 126.69592}, {"name": "신부락", "lat": 36.0122, "lng": 126.69863}, {"name": "장항터미널", "lat": 36.01499, "lng": 126.69893}, {"name": "신흥아파트", "lat": 36.01653, "lng": 126.68738}]}, {"id": "23_축협세안약국(오창동)", "anchors": [{"name": "서천터미널", "lat": 36.07552, "lng": 126.6971}, {"name": "계동", "lat": 36.06478, "lng": 126.70777}, {"name": "송내", "lat": 36.02814, "lng": 126.71338}, {"name": "신흥아파트", "lat": 36.01653, "lng": 126.68738}, {"name": "세창당", "lat": 36.0113, "lng": 126.69592}, {"name": "신부락", "lat": 36.0122, "lng": 126.69863}, {"name": "장항터미널", "lat": 36.01499, "lng": 126.69893}, {"name": "세창당", "lat": 36.0113, "lng": 126.69592}, {"name": "신흥아파트", "lat": 36.01653, "lng": 126.68738}, {"name": "신부락", "lat": 36.0122, "lng": 126.69863}, {"name": "장항읍행정복지센터", "lat": 36.01093, "lng": 126.70013}, {"name": "원수휴먼시아", "lat": 36.00767, "lng": 126.7069}, {"name": "구시장입구", "lat": 35.987, "lng": 126.7212}, {"name": "경암사거리", "lat": 35.98275, "lng": 126.72392}, {"name": "이마트.철길마을", "lat": 35.98137, "lng": 126.73463}, {"name": "동군산병원", "lat": 35.97682, "lng": 126.73745}, {"name": "경장사거리", "lat": 35.9739, "lng": 126.72879}, {"name": "군산시외버스터미널", "lat": 35.97622, "lng": 126.72435}]}, {"id": "24_축협세안약국(오창동)", "anchors": [{"name": "서천터미널", "lat": 36.07552, "lng": 126.6971}, {"name": "계동", "lat": 36.06478, "lng": 126.70777}, {"name": "송내", "lat": 36.02814, "lng": 126.71338}, {"name": "칠전", "lat": 36.053413, "lng": 126.66422}, {"name": "옥산", "lat": 36.06988, "lng": 126.65355}, {"name": "마동", "lat": 36.07293, "lng": 126.65286}, {"name": "장구사거리", "lat": 36.09342, "lng": 126.65055}, {"name": "서천터미널", "lat": 36.07552, "lng": 126.6971}]}, {"id": "25_축협세안약국(오창동)", "anchors": [{"name": "서천터미널", "lat": 36.07552, "lng": 126.6971}, {"name": "계동", "lat": 36.06478, "lng": 126.70777}, {"name": "장항역", "lat": 36.03933, "lng": 126.7146}, {"name": "송내", "lat": 36.02814, "lng": 126.71338}, {"name": "칠전", "lat": 36.053413, "lng": 126.66422}, {"name": "옥산", "lat": 36.06988, "lng": 126.65355}, {"name": "마동", "lat": 36.07293, "lng": 126.65286}, {"name": "장구사거리", "lat": 36.09342, "lng": 126.65055}, {"name": "서천터미널", "lat": 36.07552, "lng": 126.6971}]}, {"id": "26_서천터미널", "anchors": [{"name": "서천터미널", "lat": 36.07552, "lng": 126.6971}, {"name": "마동", "lat": 36.07293, "lng": 126.65286}, {"name": "옥산", "lat": 36.06988, "lng": 126.65355}, {"name": "칠전", "lat": 36.053413, "lng": 126.66422}, {"name": "송내", "lat": 36.02814, "lng": 126.71338}, {"name": "계동", "lat": 36.06478, "lng": 126.70777}, {"name": "서천터미널", "lat": 36.07552, "lng": 126.6971}, {"name": "서천터미널", "lat": 36.07552, "lng": 126.6971}]}, {"id": "27_서천터미널", "anchors": [{"name": "서천터미널", "lat": 36.07552, "lng": 126.6971}, {"name": "장구사거리", "lat": 36.09342, "lng": 126.65055}, {"name": "마동", "lat": 36.07293, "lng": 126.65286}, {"name": "옥산", "lat": 36.06988, "lng": 126.65355}, {"name": "칠전", "lat": 36.053413, "lng": 126.66422}, {"name": "송내", "lat": 36.02814, "lng": 126.71338}, {"name": "장항역", "lat": 36.03933, "lng": 126.7146}, {"name": "계동", "lat": 36.06478, "lng": 126.70777}, {"name": "서천터미널", "lat": 36.07552, "lng": 126.6971}, {"name": "서천터미널", "lat": 36.07552, "lng": 126.6971}]}, {"id": "28_서천터미널", "anchors": [{"name": "서천터미널", "lat": 36.07552, "lng": 126.6971}, {"name": "장구사거리", "lat": 36.09342, "lng": 126.65055}, {"name": "마동", "lat": 36.07293, "lng": 126.65286}, {"name": "옥산", "lat": 36.06988, "lng": 126.65355}, {"name": "칠전", "lat": 36.053413, "lng": 126.66422}, {"name": "신흥아파트", "lat": 36.01653, "lng": 126.68738}]}, {"id": "29_서천터미널", "anchors": [{"name": "서천터미널", "lat": 36.07552, "lng": 126.6971}, {"name": "장구사거리", "lat": 36.09342, "lng": 126.65055}, {"name": "마동", "lat": 36.07293, "lng": 126.65286}, {"name": "옥산", "lat": 36.06988, "lng": 126.65355}, {"name": "칠전", "lat": 36.053413, "lng": 126.66422}, {"name": "신흥아파트", "lat": 36.01653, "lng": 126.68738}]}, {"id": "30_서천터미널", "anchors": [{"name": "서천터미널", "lat": 36.07552, "lng": 126.6971}, {"name": "서천역", "lat": 36.08163, "lng": 126.70804}, {"name": "한산모시관", "lat": 36.0794, "lng": 126.79958}, {"name": "한산공용터미널", "lat": 36.08431, "lng": 126.80338}]}, {"id": "30(하)_한산공용터미널", "anchors": [{"name": "한산공용터미널", "lat": 36.08431, "lng": 126.80338}, {"name": "한산모시관", "lat": 36.0794, "lng": 126.79958}, {"name": "서천역", "lat": 36.08163, "lng": 126.70804}, {"name": "서천터미널", "lat": 36.07552, "lng": 126.6971}]}, {"id": "31_서천터미널", "anchors": [{"name": "서천터미널", "lat": 36.07552, "lng": 126.6971}, {"name": "서천역", "lat": 36.08163, "lng": 126.70804}, {"name": "한산모시관", "lat": 36.0794, "lng": 126.79958}, {"name": "한산공용터미널", "lat": 36.08431, "lng": 126.80338}]}, {"id": "32_서천터미널", "anchors": [{"name": "서천터미널", "lat": 36.07552, "lng": 126.6971}, {"name": "서천역", "lat": 36.08163, "lng": 126.70804}, {"name": "한산모시관", "lat": 36.0794, "lng": 126.79958}, {"name": "한산공용터미널", "lat": 36.08431, "lng": 126.80338}, {"name": "가덕", "lat": 36.19282, "lng": 126.76483}]}, {"id": "32(하)_홍산면행정복지센터(홍산경류소)", "anchors": [{"name": "가덕", "lat": 36.19282, "lng": 126.76483}, {"name": "한산공용터미널", "lat": 36.08431, "lng": 126.80338}, {"name": "한산모시관", "lat": 36.0794, "lng": 126.79958}, {"name": "서천역", "lat": 36.08163, "lng": 126.70804}, {"name": "서천터미널", "lat": 36.07552, "lng": 126.6971}]}, {"id": "33_서천터미널", "anchors": [{"name": "서천터미널", "lat": 36.07552, "lng": 126.6971}, {"name": "서천역", "lat": 36.08163, "lng": 126.70804}, {"name": "한산모시관", "lat": 36.0794, "lng": 126.79958}, {"name": "한산공용터미널", "lat": 36.08431, "lng": 126.80338}, {"name": "가덕", "lat": 36.19282, "lng": 126.76483}]}, {"id": "33(하)_홍산면행정복지센터(홍산경류소)", "anchors": [{"name": "가덕", "lat": 36.19282, "lng": 126.76483}, {"name": "한산공용터미널", "lat": 36.08431, "lng": 126.80338}, {"name": "한산모시관", "lat": 36.0794, "lng": 126.79958}, {"name": "서천역", "lat": 36.08163, "lng": 126.70804}, {"name": "서천터미널", "lat": 36.07552, "lng": 126.6971}]}, {"id": "34(하)_홍산면행정복지센터(홍산경류소)", "anchors": [{"name": "가덕", "lat": 36.19282, "lng": 126.76483}, {"name": "한산공용터미널", "lat": 36.08431, "lng": 126.80338}, {"name": "한산모시관", "lat": 36.0794, "lng": 126.79958}, {"name": "길산", "lat": 36.07485, "lng": 126.7267}, {"name": "서천역", "lat": 36.08163, "lng": 126.70804}, {"name": "서천터미널", "lat": 36.07552, "lng": 126.6971}]}, {"id": "35_한산공용터미널", "anchors": [{"name": "한산공용터미널", "lat": 36.08431, "lng": 126.80338}, {"name": "서천역", "lat": 36.08163, "lng": 126.70804}, {"name": "길산", "lat": 36.07485, "lng": 126.7267}, {"name": "한산모시관", "lat": 36.0794, "lng": 126.79958}, {"name": "한산공용터미널", "lat": 36.08431, "lng": 126.80338}]}, {"id": "35(하)_입포(하나로마트)", "anchors": [{"name": "한산공용터미널", "lat": 36.08431, "lng": 126.80338}, {"name": "한산모시관", "lat": 36.0794, "lng": 126.79958}, {"name": "서천역", "lat": 36.08163, "lng": 126.70804}, {"name": "서천터미널", "lat": 36.07552, "lng": 126.6971}]}, {"id": "36_서천터미널", "anchors": [{"name": "서천터미널", "lat": 36.07552, "lng": 126.6971}, {"name": "서천역", "lat": 36.08163, "lng": 126.70804}, {"name": "길산", "lat": 36.07485, "lng": 126.7267}, {"name": "한산모시관", "lat": 36.0794, "lng": 126.79958}, {"name": "한산공용터미널", "lat": 36.08431, "lng": 126.80338}]}, {"id": "37_서천터미널", "anchors": [{"name": "서천터미널", "lat": 36.07552, "lng": 126.6971}, {"name": "서천역", "lat": 36.08163, "lng": 126.70804}, {"name": "한산모시관", "lat": 36.0794, "lng": 126.79958}, {"name": "한산공용터미널", "lat": 36.08431, "lng": 126.80338}, {"name": "가덕", "lat": 36.19282, "lng": 126.76483}]}, {"id": "38_서천터미널", "anchors": [{"name": "서천터미널", "lat": 36.07552, "lng": 126.6971}, {"name": "서천역", "lat": 36.08163, "lng": 126.70804}, {"name": "한산모시관", "lat": 36.0794, "lng": 126.79958}, {"name": "한산공용터미널", "lat": 36.08431, "lng": 126.80338}]}, {"id": "39(하)_한산공용터미널", "anchors": [{"name": "한산공용터미널", "lat": 36.08431, "lng": 126.80338}, {"name": "한산모시관", "lat": 36.0794, "lng": 126.79958}, {"name": "서천역", "lat": 36.08163, "lng": 126.70804}, {"name": "서천터미널", "lat": 36.07552, "lng": 126.6971}]}, {"id": "40_서천터미널", "anchors": [{"name": "서천터미널", "lat": 36.07552, "lng": 126.6971}]}, {"id": "41_서천터미널", "anchors": [{"name": "서천터미널", "lat": 36.07552, "lng": 126.6971}]}, {"id": "42_서천터미널", "anchors": [{"name": "서천터미널", "lat": 36.07552, "lng": 126.6971}, {"name": "남심", "lat": 36.191, "lng": 126.67075}, {"name": "못골", "lat": 36.1952, "lng": 126.67145}]}, {"id": "43_서천터미널", "anchors": [{"name": "서천터미널", "lat": 36.07552, "lng": 126.6971}, {"name": "옥산면행정복지센터", "lat": 36.1922, "lng": 126.73268}]}, {"id": "44_서천터미널", "anchors": [{"name": "서천터미널", "lat": 36.07552, "lng": 126.6971}, {"name": "유점", "lat": 36.16897, "lng": 126.7098}, {"name": "왜말", "lat": 36.13915, "lng": 126.74673}]}, {"id": "45_서천터미널", "anchors": [{"name": "서천터미널", "lat": 36.07552, "lng": 126.6971}, {"name": "판교역", "lat": 36.15466, "lng": 126.67981}, {"name": "지성굴", "lat": 36.15392, "lng": 126.67215}, {"name": "월봉", "lat": 36.15719, "lng": 126.65033}, {"name": "심동", "lat": 36.16828, "lng": 126.65645}]}, {"id": "46_서천터미널", "anchors": [{"name": "서천터미널", "lat": 36.07552, "lng": 126.6971}, {"name": "유점", "lat": 36.16897, "lng": 126.7098}]}, {"id": "58_서천터미널", "anchors": [{"name": "서천터미널", "lat": 36.07552, "lng": 126.6971}, {"name": "화금리", "lat": 36.08581, "lng": 126.70438}, {"name": "서내바지", "lat": 36.11329, "lng": 126.72929}, {"name": "왜말", "lat": 36.13915, "lng": 126.74673}, {"name": "유점", "lat": 36.16897, "lng": 126.7098}, {"name": "서천터미널", "lat": 36.07552, "lng": 126.6971}]}, {"id": "51_서천터미널", "anchors": [{"name": "서천터미널", "lat": 36.07552, "lng": 126.6971}, {"name": "서천역", "lat": 36.08163, "lng": 126.70804}, {"name": "화금리", "lat": 36.08581, "lng": 126.70438}, {"name": "서내바지", "lat": 36.11329, "lng": 126.72929}]}, {"id": "52_서천터미널", "anchors": [{"name": "서천터미널", "lat": 36.07552, "lng": 126.6971}, {"name": "서천역", "lat": 36.08163, "lng": 126.70804}, {"name": "화금리", "lat": 36.08581, "lng": 126.70438}, {"name": "서내바지", "lat": 36.11329, "lng": 126.72929}, {"name": "명곡", "lat": 36.14717, "lng": 126.75953}, {"name": "가덕", "lat": 36.19282, "lng": 126.76483}]}, {"id": "53_문산경류소", "anchors": [{"name": "명곡", "lat": 36.14717, "lng": 126.75953}, {"name": "서내바지", "lat": 36.11329, "lng": 126.72929}, {"name": "화금리", "lat": 36.08581, "lng": 126.70438}, {"name": "서천역", "lat": 36.08163, "lng": 126.70804}, {"name": "서천터미널", "lat": 36.07552, "lng": 126.6971}]}, {"id": "54_서천터미널", "anchors": [{"name": "서천터미널", "lat": 36.07552, "lng": 126.6971}, {"name": "서천역", "lat": 36.08163, "lng": 126.70804}, {"name": "화금리", "lat": 36.08581, "lng": 126.70438}, {"name": "서내바지", "lat": 36.11329, "lng": 126.72929}, {"name": "명곡", "lat": 36.14717, "lng": 126.75953}]}, {"id": "55_서천터미널", "anchors": [{"name": "서천터미널", "lat": 36.07552, "lng": 126.6971}, {"name": "화금리", "lat": 36.08581, "lng": 126.70438}, {"name": "서내바지", "lat": 36.11329, "lng": 126.72929}, {"name": "명곡", "lat": 36.14717, "lng": 126.75953}, {"name": "구변골", "lat": 36.15899, "lng": 126.75495}, {"name": "원댕리", "lat": 36.163, "lng": 126.73434}, {"name": "왜말", "lat": 36.13915, "lng": 126.74673}]}, {"id": "56_서천터미널", "anchors": [{"name": "서천터미널", "lat": 36.07552, "lng": 126.6971}, {"name": "화금리", "lat": 36.08581, "lng": 126.70438}, {"name": "서내바지", "lat": 36.11329, "lng": 126.72929}, {"name": "왜말", "lat": 36.13915, "lng": 126.74673}, {"name": "원댕리", "lat": 36.163, "lng": 126.73434}, {"name": "구변골", "lat": 36.15899, "lng": 126.75495}, {"name": "명곡", "lat": 36.14717, "lng": 126.75953}]}, {"id": "57_서천터미널", "anchors": [{"name": "서천터미널", "lat": 36.07552, "lng": 126.6971}, {"name": "화금리", "lat": 36.08581, "lng": 126.70438}, {"name": "서내바지", "lat": 36.11329, "lng": 126.72929}, {"name": "왜말", "lat": 36.13915, "lng": 126.74673}, {"name": "유점", "lat": 36.16897, "lng": 126.7098}]}, {"id": "61_서천터미널", "anchors": [{"name": "서천터미널", "lat": 36.07552, "lng": 126.6971}, {"name": "서천역", "lat": 36.08163, "lng": 126.70804}, {"name": "화양면행정복지센터", "lat": 36.03842, "lng": 126.782}]}, {"id": "62_문산경류소", "anchors": [{"name": "서천역", "lat": 36.08163, "lng": 126.70804}, {"name": "용산리", "lat": 36.06211, "lng": 126.84121}, {"name": "동자북", "lat": 36.08523, "lng": 126.81435}, {"name": "한산공용터미널", "lat": 36.08431, "lng": 126.80338}]}, {"id": "62(하)_한산공용터미널", "anchors": [{"name": "한산공용터미널", "lat": 36.08431, "lng": 126.80338}, {"name": "동자북", "lat": 36.08523, "lng": 126.81435}, {"name": "용산리", "lat": 36.06211, "lng": 126.84121}, {"name": "서천역", "lat": 36.08163, "lng": 126.70804}, {"name": "서천터미널", "lat": 36.07552, "lng": 126.6971}]}, {"id": "63_서천터미널", "anchors": [{"name": "서천터미널", "lat": 36.07552, "lng": 126.6971}, {"name": "서천역", "lat": 36.08163, "lng": 126.70804}]}, {"id": "63(하)_한산공용터미널", "anchors": [{"name": "한산공용터미널", "lat": 36.08431, "lng": 126.80338}, {"name": "동자북", "lat": 36.08523, "lng": 126.81435}, {"name": "용산리", "lat": 36.06211, "lng": 126.84121}, {"name": "기복리", "lat": 36.05723, "lng": 126.79505}, {"name": "두루재", "lat": 36.06196, "lng": 126.78708}, {"name": "두북리입구", "lat": 36.06977, "lng": 126.74233}, {"name": "서천역", "lat": 36.08163, "lng": 126.70804}, {"name": "서천터미널", "lat": 36.07552, "lng": 126.6971}]}, {"id": "64_서천터미널", "anchors": [{"name": "서천터미널", "lat": 36.07552, "lng": 126.6971}, {"name": "서천역", "lat": 36.08163, "lng": 126.70804}, {"name": "용산리", "lat": 36.06211, "lng": 126.84121}, {"name": "동자북", "lat": 36.08523, "lng": 126.81435}, {"name": "한산공용터미널", "lat": 36.08431, "lng": 126.80338}]}, {"id": "64(하)_한산공용터미널", "anchors": [{"name": "한산공용터미널", "lat": 36.08431, "lng": 126.80338}, {"name": "동자북", "lat": 36.08523, "lng": 126.81435}, {"name": "용산리", "lat": 36.06211, "lng": 126.84121}, {"name": "서천역", "lat": 36.08163, "lng": 126.70804}, {"name": "서천터미널", "lat": 36.07552, "lng": 126.6971}]}, {"id": "70_연봉리마을회관", "anchors": [{"name": "연봉리마을회관", "lat": 36.07143, "lng": 126.83708}, {"name": "서천역", "lat": 36.08163, "lng": 126.70804}, {"name": "화금리", "lat": 36.08581, "lng": 126.70438}]}, {"id": "73_서천터미널", "anchors": [{"name": "서천터미널", "lat": 36.07552, "lng": 126.6971}, {"name": "화금리", "lat": 36.08581, "lng": 126.70438}, {"name": "태성1리.수왕굴", "lat": 36.1166, "lng": 126.7664}]}, {"id": "73(하)_문산경류소", "anchors": [{"name": "화금리", "lat": 36.08581, "lng": 126.70438}, {"name": "서천역", "lat": 36.08163, "lng": 126.70804}, {"name": "서천터미널", "lat": 36.07552, "lng": 126.6971}]}, {"id": "74(하)_문산경류소", "anchors": [{"name": "화금리", "lat": 36.08581, "lng": 126.70438}, {"name": "서천터미널", "lat": 36.07552, "lng": 126.6971}]}, {"id": "75(하)_문산경류소", "anchors": [{"name": "화금리", "lat": 36.08581, "lng": 126.70438}, {"name": "서천터미널", "lat": 36.07552, "lng": 126.6971}]}, {"id": "76_서천터미널", "anchors": [{"name": "서천터미널", "lat": 36.07552, "lng": 126.6971}, {"name": "서천역", "lat": 36.08163, "lng": 126.70804}, {"name": "화금리", "lat": 36.08581, "lng": 126.70438}, {"name": "태성1리.수왕굴", "lat": 36.1166, "lng": 126.7664}]}, {"id": "77_서천터미널", "anchors": [{"name": "서천터미널", "lat": 36.07552, "lng": 126.6971}, {"name": "서천역", "lat": 36.08163, "lng": 126.70804}, {"name": "화금리", "lat": 36.08581, "lng": 126.70438}, {"name": "태성1리.수왕굴", "lat": 36.1166, "lng": 126.7664}]}, {"id": "80_서천터미널", "anchors": [{"name": "서천터미널", "lat": 36.07552, "lng": 126.6971}, {"name": "하송", "lat": 36.0788, "lng": 126.66928}, {"name": "장마루", "lat": 36.07995, "lng": 126.66532}, {"name": "장구사거리", "lat": 36.09342, "lng": 126.65055}, {"name": "뚜두렁", "lat": 36.09451, "lng": 126.63942}, {"name": "월하성", "lat": 36.13525, "lng": 126.56335}]}, {"id": "81_서천터미널", "anchors": [{"name": "서천터미널", "lat": 36.07552, "lng": 126.6971}, {"name": "하송", "lat": 36.0788, "lng": 126.66928}, {"name": "장구사거리", "lat": 36.09342, "lng": 126.65055}, {"name": "뚜두렁", "lat": 36.09451, "lng": 126.63942}, {"name": "월하성", "lat": 36.13525, "lng": 126.56335}, {"name": "서면행정복지센터", "lat": 36.15247, "lng": 126.54942}]}, {"id": "84_서천터미널", "anchors": [{"name": "서천터미널", "lat": 36.07552, "lng": 126.6971}, {"name": "하송", "lat": 36.0788, "lng": 126.66928}, {"name": "장마루", "lat": 36.07995, "lng": 126.66532}, {"name": "장구사거리", "lat": 36.09342, "lng": 126.65055}, {"name": "뚜두렁", "lat": 36.09451, "lng": 126.63942}]}, {"id": "85_서천터미널", "anchors": [{"name": "서천터미널", "lat": 36.07552, "lng": 126.6971}, {"name": "하송", "lat": 36.0788, "lng": 126.66928}, {"name": "장마루", "lat": 36.07995, "lng": 126.66532}, {"name": "장구사거리", "lat": 36.09342, "lng": 126.65055}, {"name": "뚜두렁", "lat": 36.09451, "lng": 126.63942}, {"name": "관리", "lat": 36.12172, "lng": 126.61612}, {"name": "비인면행정복지센터", "lat": 36.14197, "lng": 126.60077}]}, {"id": "86_서천터미널", "anchors": [{"name": "서천터미널", "lat": 36.07552, "lng": 126.6971}, {"name": "하송", "lat": 36.0788, "lng": 126.66928}, {"name": "장마루", "lat": 36.07995, "lng": 126.66532}, {"name": "장구사거리", "lat": 36.09342, "lng": 126.65055}, {"name": "뚜두렁", "lat": 36.09451, "lng": 126.63942}, {"name": "관리", "lat": 36.12172, "lng": 126.61612}, {"name": "비인면행정복지센터", "lat": 36.14197, "lng": 126.60077}]}, {"id": "90_서천터미널", "anchors": [{"name": "서천터미널", "lat": 36.07552, "lng": 126.6971}, {"name": "솟동매", "lat": 36.12048, "lng": 126.64128}, {"name": "원닥골", "lat": 36.15307, "lng": 126.61925}, {"name": "관적사입구", "lat": 36.14738, "lng": 126.60788}, {"name": "칠성바위", "lat": 36.16267, "lng": 126.58358}, {"name": "서면중학교", "lat": 36.15379, "lng": 126.55037}, {"name": "월하성", "lat": 36.13525, "lng": 126.56335}, {"name": "배다리", "lat": 36.15492, "lng": 126.5715}, {"name": "월하성", "lat": 36.13525, "lng": 126.56335}]}, {"id": "91_서천터미널", "anchors": [{"name": "서천터미널", "lat": 36.07552, "lng": 126.6971}, {"name": "솟동매", "lat": 36.12048, "lng": 126.64128}, {"name": "원닥골", "lat": 36.15307, "lng": 126.61925}, {"name": "관적사입구", "lat": 36.14738, "lng": 126.60788}, {"name": "칠성바위", "lat": 36.16267, "lng": 126.58358}, {"name": "서면중학교", "lat": 36.15379, "lng": 126.55037}, {"name": "배다리", "lat": 36.15492, "lng": 126.5715}, {"name": "서면행정복지센터", "lat": 36.15247, "lng": 126.54942}]}, {"id": "92_서천터미널", "anchors": [{"name": "서천터미널", "lat": 36.07552, "lng": 126.6971}, {"name": "솟동매", "lat": 36.12048, "lng": 126.64128}, {"name": "원닥골", "lat": 36.15307, "lng": 126.61925}, {"name": "관적사입구", "lat": 36.14738, "lng": 126.60788}, {"name": "배다리", "lat": 36.15492, "lng": 126.5715}, {"name": "서면중학교", "lat": 36.15379, "lng": 126.55037}, {"name": "칠성바위", "lat": 36.16267, "lng": 126.58358}, {"name": "서면행정복지센터", "lat": 36.15247, "lng": 126.54942}]}, {"id": "101_축협세안약국(오창동)", "anchors": [{"name": "서천터미널", "lat": 36.07552, "lng": 126.6971}, {"name": "계동", "lat": 36.06478, "lng": 126.70777}, {"name": "송내", "lat": 36.02814, "lng": 126.71338}, {"name": "송내", "lat": 36.02814, "lng": 126.71338}, {"name": "계동", "lat": 36.06478, "lng": 126.70777}, {"name": "서천터미널", "lat": 36.07552, "lng": 126.6971}, {"name": "배다리", "lat": 36.15492, "lng": 126.5715}, {"name": "동백정입구.발전소", "lat": 36.1429, "lng": 126.5003}]}, {"id": "102_축협세안약국(오창동)", "anchors": [{"name": "서천터미널", "lat": 36.07552, "lng": 126.6971}, {"name": "계동", "lat": 36.06478, "lng": 126.70777}, {"name": "송내", "lat": 36.02814, "lng": 126.71338}, {"name": "송내", "lat": 36.02814, "lng": 126.71338}, {"name": "계동", "lat": 36.06478, "lng": 126.70777}, {"name": "서천터미널", "lat": 36.07552, "lng": 126.6971}, {"name": "배다리", "lat": 36.15492, "lng": 126.5715}, {"name": "춘장대", "lat": 36.16327, "lng": 126.52709}, {"name": "춘장대", "lat": 36.16327, "lng": 126.52709}, {"name": "동백정입구.발전소", "lat": 36.1429, "lng": 126.5003}]}, {"id": "103_마량리(동백)", "anchors": [{"name": "동백정입구.발전소", "lat": 36.1429, "lng": 126.5003}, {"name": "춘장대", "lat": 36.16327, "lng": 126.52709}, {"name": "배다리", "lat": 36.15492, "lng": 126.5715}, {"name": "서천터미널", "lat": 36.07552, "lng": 126.6971}, {"name": "계동", "lat": 36.06478, "lng": 126.70777}, {"name": "송내", "lat": 36.02814, "lng": 126.71338}, {"name": "송내", "lat": 36.02814, "lng": 126.71338}, {"name": "계동", "lat": 36.06478, "lng": 126.70777}, {"name": "서천터미널", "lat": 36.07552, "lng": 126.6971}, {"name": "서천터미널", "lat": 36.07552, "lng": 126.6971}]}, {"id": "104_마량리(동백)", "anchors": [{"name": "동백정입구.발전소", "lat": 36.1429, "lng": 126.5003}, {"name": "춘장대", "lat": 36.16327, "lng": 126.52709}, {"name": "배다리", "lat": 36.15492, "lng": 126.5715}, {"name": "서천터미널", "lat": 36.07552, "lng": 126.6971}, {"name": "계동", "lat": 36.06478, "lng": 126.70777}, {"name": "송내", "lat": 36.02814, "lng": 126.71338}, {"name": "송내", "lat": 36.02814, "lng": 126.71338}, {"name": "계동", "lat": 36.06478, "lng": 126.70777}, {"name": "서천터미널", "lat": 36.07552, "lng": 126.6971}, {"name": "서천터미널", "lat": 36.07552, "lng": 126.6971}]}, {"id": "105_마량리(동백)", "anchors": [{"name": "동백정입구.발전소", "lat": 36.1429, "lng": 126.5003}, {"name": "배다리", "lat": 36.15492, "lng": 126.5715}, {"name": "서천터미널", "lat": 36.07552, "lng": 126.6971}, {"name": "계동", "lat": 36.06478, "lng": 126.70777}, {"name": "송내", "lat": 36.02814, "lng": 126.71338}, {"name": "송내", "lat": 36.02814, "lng": 126.71338}, {"name": "장항역", "lat": 36.03933, "lng": 126.7146}, {"name": "계동", "lat": 36.06478, "lng": 126.70777}, {"name": "서천터미널", "lat": 36.07552, "lng": 126.6971}, {"name": "서천터미널", "lat": 36.07552, "lng": 126.6971}]}, {"id": "106_마량리(동백)", "anchors": [{"name": "동백정입구.발전소", "lat": 36.1429, "lng": 126.5003}, {"name": "배다리", "lat": 36.15492, "lng": 126.5715}, {"name": "서천터미널", "lat": 36.07552, "lng": 126.6971}, {"name": "계동", "lat": 36.06478, "lng": 126.70777}, {"name": "장항역", "lat": 36.03933, "lng": 126.7146}, {"name": "송내", "lat": 36.02814, "lng": 126.71338}, {"name": "송내", "lat": 36.02814, "lng": 126.71338}, {"name": "계동", "lat": 36.06478, "lng": 126.70777}, {"name": "서천터미널", "lat": 36.07552, "lng": 126.6971}, {"name": "서천터미널", "lat": 36.07552, "lng": 126.6971}]}, {"id": "201_축협세안약국(오창동)", "anchors": [{"name": "서천터미널", "lat": 36.07552, "lng": 126.6971}, {"name": "장선리마을회관", "lat": 36.0471, "lng": 126.71635}, {"name": "장상리", "lat": 36.0449, "lng": 126.74148}, {"name": "원도삼", "lat": 36.03173, "lng": 126.73262}, {"name": "모군리", "lat": 36.03128, "lng": 126.7383}, {"name": "원도삼", "lat": 36.03173, "lng": 126.73262}, {"name": "원수휴먼시아", "lat": 36.00767, "lng": 126.7069}, {"name": "세창당", "lat": 36.0113, "lng": 126.69592}, {"name": "신흥아파트", "lat": 36.01653, "lng": 126.68738}]}, {"id": "201(하)_신흥아파트", "anchors": [{"name": "신흥아파트", "lat": 36.01653, "lng": 126.68738}, {"name": "장상리", "lat": 36.0449, "lng": 126.74148}, {"name": "장선리마을회관", "lat": 36.0471, "lng": 126.71635}, {"name": "서천터미널", "lat": 36.07552, "lng": 126.6971}]}, {"id": "202(하)_신흥아파트", "anchors": [{"name": "신흥아파트", "lat": 36.01653, "lng": 126.68738}, {"name": "원수휴먼시아", "lat": 36.00767, "lng": 126.7069}, {"name": "원도삼", "lat": 36.03173, "lng": 126.73262}, {"name": "모군리", "lat": 36.03128, "lng": 126.7383}, {"name": "원도삼", "lat": 36.03173, "lng": 126.73262}, {"name": "장상리", "lat": 36.0449, "lng": 126.74148}, {"name": "장선리마을회관", "lat": 36.0471, "lng": 126.71635}, {"name": "서천터미널", "lat": 36.07552, "lng": 126.6971}]}, {"id": "203(하)_신흥아파트", "anchors": [{"name": "신흥아파트", "lat": 36.01653, "lng": 126.68738}, {"name": "원수휴먼시아", "lat": 36.00767, "lng": 126.7069}, {"name": "장상리", "lat": 36.0449, "lng": 126.74148}, {"name": "장선리마을회관", "lat": 36.0471, "lng": 126.71635}, {"name": "서천터미널", "lat": 36.07552, "lng": 126.6971}]}, {"id": "204_축협세안약국(오창동)", "anchors": [{"name": "서천터미널", "lat": 36.07552, "lng": 126.6971}, {"name": "장선리마을회관", "lat": 36.0471, "lng": 126.71635}, {"name": "장상리", "lat": 36.0449, "lng": 126.74148}, {"name": "원도삼", "lat": 36.03173, "lng": 126.73262}, {"name": "모군리", "lat": 36.03128, "lng": 126.7383}, {"name": "신기", "lat": 36.02492, "lng": 126.7335}, {"name": "원수휴먼시아", "lat": 36.00767, "lng": 126.7069}, {"name": "원수휴먼시아", "lat": 36.00767, "lng": 126.7069}, {"name": "하구둑", "lat": 36.0131, "lng": 126.75713}, {"name": "화양면행정복지센터", "lat": 36.03842, "lng": 126.782}]}, {"id": "205_축협세안약국(오창동)", "anchors": [{"name": "서천터미널", "lat": 36.07552, "lng": 126.6971}, {"name": "장선리마을회관", "lat": 36.0471, "lng": 126.71635}, {"name": "장상리", "lat": 36.0449, "lng": 126.74148}, {"name": "원도삼", "lat": 36.03173, "lng": 126.73262}, {"name": "모군리", "lat": 36.03128, "lng": 126.7383}, {"name": "원수휴먼시아", "lat": 36.00767, "lng": 126.7069}, {"name": "원수휴먼시아", "lat": 36.00767, "lng": 126.7069}, {"name": "하구둑", "lat": 36.0131, "lng": 126.75713}, {"name": "화양면행정복지센터", "lat": 36.03842, "lng": 126.782}]}, {"id": "301_한산공용터미널", "anchors": [{"name": "한산공용터미널", "lat": 36.08431, "lng": 126.80338}, {"name": "한산모시관", "lat": 36.0794, "lng": 126.79958}, {"name": "기복리", "lat": 36.05723, "lng": 126.79505}, {"name": "두루재", "lat": 36.06196, "lng": 126.78708}, {"name": "하구둑", "lat": 36.0131, "lng": 126.75713}, {"name": "송내", "lat": 36.02814, "lng": 126.71338}, {"name": "원수휴먼시아", "lat": 36.00767, "lng": 126.7069}, {"name": "신흥아파트", "lat": 36.01653, "lng": 126.68738}]}, {"id": "302_한산공용터미널", "anchors": [{"name": "한산공용터미널", "lat": 36.08431, "lng": 126.80338}, {"name": "한산모시관", "lat": 36.0794, "lng": 126.79958}, {"name": "기복리", "lat": 36.05723, "lng": 126.79505}, {"name": "두루재", "lat": 36.06196, "lng": 126.78708}, {"name": "하구둑", "lat": 36.0131, "lng": 126.75713}, {"name": "원수휴먼시아", "lat": 36.00767, "lng": 126.7069}, {"name": "신흥아파트", "lat": 36.01653, "lng": 126.68738}]}, {"id": "303_화양면행정복지센터(출발)/한산공용터미널(도착)", "anchors": [{"name": "두루재", "lat": 36.06196, "lng": 126.78708}, {"name": "하구둑", "lat": 36.0131, "lng": 126.75713}, {"name": "원수휴먼시아", "lat": 36.00767, "lng": 126.7069}, {"name": "신흥아파트", "lat": 36.01653, "lng": 126.68738}]}, {"id": "310_서천터미널", "anchors": [{"name": "서천터미널", "lat": 36.07552, "lng": 126.6971}, {"name": "서천역", "lat": 36.08163, "lng": 126.70804}, {"name": "한산모시관", "lat": 36.0794, "lng": 126.79958}, {"name": "한산공용터미널", "lat": 36.08431, "lng": 126.80338}]}, {"id": "314_한산공용터미널", "anchors": [{"name": "한산공용터미널", "lat": 36.08431, "lng": 126.80338}, {"name": "강산굴", "lat": 36.07442, "lng": 126.84138}, {"name": "동자북", "lat": 36.08523, "lng": 126.81435}, {"name": "한산공용터미널", "lat": 36.08431, "lng": 126.80338}]}, {"id": "320_서천터미널", "anchors": [{"name": "서천터미널", "lat": 36.07552, "lng": 126.6971}, {"name": "서천역", "lat": 36.08163, "lng": 126.70804}, {"name": "한산모시관", "lat": 36.0794, "lng": 126.79958}, {"name": "한산공용터미널", "lat": 36.08431, "lng": 126.80338}, {"name": "동자북", "lat": 36.08523, "lng": 126.81435}, {"name": "강산굴", "lat": 36.07442, "lng": 126.84138}, {"name": "신성리", "lat": 36.070103, "lng": 126.855606}, {"name": "신성리갈대밭", "lat": 36.06852, "lng": 126.86042}, {"name": "신성리", "lat": 36.070103, "lng": 126.855606}, {"name": "한산공용터미널", "lat": 36.08431, "lng": 126.80338}]}, {"id": "321_서천터미널", "anchors": [{"name": "서천터미널", "lat": 36.07552, "lng": 126.6971}, {"name": "서천역", "lat": 36.08163, "lng": 126.70804}, {"name": "한산모시관", "lat": 36.0794, "lng": 126.79958}, {"name": "한산공용터미널", "lat": 36.08431, "lng": 126.80338}, {"name": "강산굴", "lat": 36.07442, "lng": 126.84138}, {"name": "한산공용터미널", "lat": 36.08431, "lng": 126.80338}, {"name": "한산공용터미널", "lat": 36.08431, "lng": 126.80338}]}, {"id": "324_한산공용터미널", "anchors": [{"name": "한산공용터미널", "lat": 36.08431, "lng": 126.80338}, {"name": "동자북", "lat": 36.08523, "lng": 126.81435}, {"name": "강산굴", "lat": 36.07442, "lng": 126.84138}, {"name": "신성리", "lat": 36.070103, "lng": 126.855606}, {"name": "신성리갈대밭", "lat": 36.06852, "lng": 126.86042}, {"name": "신성리", "lat": 36.070103, "lng": 126.855606}, {"name": "한산공용터미널", "lat": 36.08431, "lng": 126.80338}]}, {"id": "330_서천터미널", "anchors": [{"name": "서천터미널", "lat": 36.07552, "lng": 126.6971}, {"name": "서천역", "lat": 36.08163, "lng": 126.70804}, {"name": "한산모시관", "lat": 36.0794, "lng": 126.79958}, {"name": "한산공용터미널", "lat": 36.08431, "lng": 126.80338}, {"name": "야인리", "lat": 36.12158, "lng": 126.828}, {"name": "한산공용터미널", "lat": 36.08431, "lng": 126.80338}]}, {"id": "340_서천터미널", "anchors": [{"name": "서천터미널", "lat": 36.07552, "lng": 126.6971}, {"name": "서천역", "lat": 36.08163, "lng": 126.70804}, {"name": "한산모시관", "lat": 36.0794, "lng": 126.79958}, {"name": "한산공용터미널", "lat": 36.08431, "lng": 126.80338}, {"name": "두루재", "lat": 36.06196, "lng": 126.78708}, {"name": "두루재", "lat": 36.06196, "lng": 126.78708}, {"name": "기복리", "lat": 36.05723, "lng": 126.79505}, {"name": "동자북", "lat": 36.08523, "lng": 126.81435}, {"name": "한산공용터미널", "lat": 36.08431, "lng": 126.80338}]}, {"id": "341_서천터미널", "anchors": [{"name": "서천터미널", "lat": 36.07552, "lng": 126.6971}, {"name": "서천역", "lat": 36.08163, "lng": 126.70804}, {"name": "한산모시관", "lat": 36.0794, "lng": 126.79958}, {"name": "한산공용터미널", "lat": 36.08431, "lng": 126.80338}, {"name": "두루재", "lat": 36.06196, "lng": 126.78708}, {"name": "두루재", "lat": 36.06196, "lng": 126.78708}, {"name": "기복리", "lat": 36.05723, "lng": 126.79505}, {"name": "동자북", "lat": 36.08523, "lng": 126.81435}, {"name": "한산공용터미널", "lat": 36.08431, "lng": 126.80338}]}, {"id": "343_한산공용터미널", "anchors": [{"name": "한산공용터미널", "lat": 36.08431, "lng": 126.80338}, {"name": "야인리", "lat": 36.12158, "lng": 126.828}, {"name": "한산공용터미널", "lat": 36.08431, "lng": 126.80338}]}, {"id": "353_한산공용터미널", "anchors": [{"name": "한산공용터미널", "lat": 36.08431, "lng": 126.80338}, {"name": "신봉리마을회관", "lat": 36.14182, "lng": 126.78}, {"name": "서풍굴", "lat": 36.14742, "lng": 126.78433}, {"name": "무시점입구", "lat": 36.14985, "lng": 126.78797}, {"name": "시선리", "lat": 36.15552, "lng": 126.78846}]}, {"id": "310 마서_서천터미널", "anchors": [{"name": "서천터미널", "lat": 36.07552, "lng": 126.6971}, {"name": "서천역", "lat": 36.08163, "lng": 126.70804}, {"name": "한산모시관", "lat": 36.0794, "lng": 126.79958}, {"name": "한산공용터미널", "lat": 36.08431, "lng": 126.80338}]}, {"id": "401_서천터미널", "anchors": [{"name": "서천터미널", "lat": 36.07552, "lng": 126.6971}, {"name": "서천역", "lat": 36.08163, "lng": 126.70804}, {"name": "남리", "lat": 36.10799, "lng": 126.76925}, {"name": "북리.주절", "lat": 36.11217, "lng": 126.77613}, {"name": "야인리", "lat": 36.12158, "lng": 126.828}, {"name": "한산공용터미널", "lat": 36.08431, "lng": 126.80338}]}, {"id": "402_서천터미널", "anchors": [{"name": "서천터미널", "lat": 36.07552, "lng": 126.6971}, {"name": "서천역", "lat": 36.08163, "lng": 126.70804}, {"name": "영모리회관", "lat": 36.08665, "lng": 126.77978}, {"name": "남리", "lat": 36.10799, "lng": 126.76925}, {"name": "북리.주절", "lat": 36.11217, "lng": 126.77613}, {"name": "한산공용터미널", "lat": 36.08431, "lng": 126.80338}]}, {"id": "L402_한산공용터미널", "anchors": [{"name": "한산공용터미널", "lat": 36.08431, "lng": 126.80338}, {"name": "북리.주절", "lat": 36.11217, "lng": 126.77613}, {"name": "남리", "lat": 36.10799, "lng": 126.76925}, {"name": "영모리회관", "lat": 36.08665, "lng": 126.77978}, {"name": "서천역", "lat": 36.08163, "lng": 126.70804}, {"name": "서천터미널", "lat": 36.07552, "lng": 126.6971}]}, {"id": "L403_한산공용터미널", "anchors": [{"name": "한산공용터미널", "lat": 36.08431, "lng": 126.80338}, {"name": "북리.주절", "lat": 36.11217, "lng": 126.77613}, {"name": "남리", "lat": 36.10799, "lng": 126.76925}, {"name": "서천역", "lat": 36.08163, "lng": 126.70804}, {"name": "서천터미널", "lat": 36.07552, "lng": 126.6971}]}, {"id": "405_서천터미널", "anchors": [{"name": "서천터미널", "lat": 36.07552, "lng": 126.6971}, {"name": "서천역", "lat": 36.08163, "lng": 126.70804}, {"name": "남리", "lat": 36.10799, "lng": 126.76925}]}, {"id": "406_서천터미널", "anchors": [{"name": "서천터미널", "lat": 36.07552, "lng": 126.6971}, {"name": "서천역", "lat": 36.08163, "lng": 126.70804}, {"name": "영모리회관", "lat": 36.08665, "lng": 126.77978}, {"name": "봉서사", "lat": 36.08793, "lng": 126.79193}, {"name": "영모리회관", "lat": 36.08665, "lng": 126.77978}, {"name": "남리", "lat": 36.10799, "lng": 126.76925}, {"name": "북리.주절", "lat": 36.11217, "lng": 126.77613}, {"name": "한산공용터미널", "lat": 36.08431, "lng": 126.80338}]}, {"id": "L406_한산공용터미널", "anchors": [{"name": "한산공용터미널", "lat": 36.08431, "lng": 126.80338}, {"name": "북리.주절", "lat": 36.11217, "lng": 126.77613}, {"name": "남리", "lat": 36.10799, "lng": 126.76925}, {"name": "영모리회관", "lat": 36.08665, "lng": 126.77978}, {"name": "봉서사", "lat": 36.08793, "lng": 126.79193}, {"name": "영모리회관", "lat": 36.08665, "lng": 126.77978}, {"name": "서천역", "lat": 36.08163, "lng": 126.70804}, {"name": "서천터미널", "lat": 36.07552, "lng": 126.6971}]}, {"id": "407_한산공용터미널", "anchors": [{"name": "한산공용터미널", "lat": 36.08431, "lng": 126.80338}, {"name": "석동", "lat": 36.101, "lng": 126.78302}, {"name": "영모리회관", "lat": 36.08665, "lng": 126.77978}, {"name": "내신산", "lat": 36.08003, "lng": 126.76108}, {"name": "한산모시관", "lat": 36.0794, "lng": 126.79958}, {"name": "한산공용터미널", "lat": 36.08431, "lng": 126.80338}]}, {"id": "501_서천터미널", "anchors": [{"name": "서천터미널", "lat": 36.07552, "lng": 126.6971}, {"name": "솟동매", "lat": 36.12048, "lng": 126.64128}, {"name": "한치", "lat": 36.13848, "lng": 126.65554}, {"name": "먹재", "lat": 36.14905, "lng": 126.65323}, {"name": "지성굴", "lat": 36.15392, "lng": 126.67215}, {"name": "판교역", "lat": 36.15466, "lng": 126.67981}]}, {"id": "502_서천터미널", "anchors": [{"name": "서천터미널", "lat": 36.07552, "lng": 126.6971}, {"name": "솟동매", "lat": 36.12048, "lng": 126.64128}, {"name": "한치", "lat": 36.13848, "lng": 126.65554}, {"name": "먹재", "lat": 36.14905, "lng": 126.65323}, {"name": "월봉", "lat": 36.15719, "lng": 126.65033}, {"name": "심동", "lat": 36.16828, "lng": 126.65645}, {"name": "월봉", "lat": 36.15719, "lng": 126.65033}, {"name": "지성굴", "lat": 36.15392, "lng": 126.67215}, {"name": "판교역", "lat": 36.15466, "lng": 126.67981}]}, {"id": "503_서천터미널", "anchors": [{"name": "서천터미널", "lat": 36.07552, "lng": 126.6971}, {"name": "솟동매", "lat": 36.12048, "lng": 126.64128}, {"name": "한치", "lat": 36.13848, "lng": 126.65554}, {"name": "먹재", "lat": 36.14905, "lng": 126.65323}, {"name": "월봉", "lat": 36.15719, "lng": 126.65033}, {"name": "심동", "lat": 36.16828, "lng": 126.65645}, {"name": "월봉", "lat": 36.15719, "lng": 126.65033}, {"name": "지성굴", "lat": 36.15392, "lng": 126.67215}, {"name": "판교역", "lat": 36.15466, "lng": 126.67981}]}, {"id": "600_축협세안약국(오창동)", "anchors": [{"name": "서천터미널", "lat": 36.07552, "lng": 126.6971}, {"name": "계동", "lat": 36.06478, "lng": 126.70777}, {"name": "장항역", "lat": 36.03933, "lng": 126.7146}, {"name": "하구둑", "lat": 36.0131, "lng": 126.75713}, {"name": "원수휴먼시아", "lat": 36.00767, "lng": 126.7069}, {"name": "신흥아파트", "lat": 36.01653, "lng": 126.68738}, {"name": "솔만들", "lat": 36.01902, "lng": 126.67823}, {"name": "국립해양생물자원관", "lat": 36.01808, "lng": 126.67178}, {"name": "송림2리", "lat": 36.02253, "lng": 126.66908}]}, {"id": "701 안길_축협세안약국(오창동)", "anchors": [{"name": "서천터미널", "lat": 36.07552, "lng": 126.6971}, {"name": "계동", "lat": 36.06478, "lng": 126.70777}, {"name": "까치다리", "lat": 36.06027, "lng": 126.69882}, {"name": "하소", "lat": 36.06319, "lng": 126.64185}, {"name": "상소", "lat": 36.0681, "lng": 126.64192}, {"name": "마동", "lat": 36.07293, "lng": 126.65286}, {"name": "옥산", "lat": 36.06988, "lng": 126.65355}, {"name": "와석", "lat": 36.07407, "lng": 126.63287}, {"name": "동지산", "lat": 36.0757, "lng": 126.63603}, {"name": "갈목", "lat": 36.08081, "lng": 126.62516}]}, {"id": "701 외곽_축협세안약국(오창동)", "anchors": [{"name": "서천터미널", "lat": 36.07552, "lng": 126.6971}, {"name": "계동", "lat": 36.06478, "lng": 126.70777}, {"name": "까치다리", "lat": 36.06027, "lng": 126.69882}, {"name": "하소", "lat": 36.06319, "lng": 126.64185}, {"name": "상소", "lat": 36.0681, "lng": 126.64192}, {"name": "옥산", "lat": 36.06988, "lng": 126.65355}, {"name": "마동", "lat": 36.07293, "lng": 126.65286}, {"name": "와석", "lat": 36.07407, "lng": 126.63287}, {"name": "동지산", "lat": 36.0757, "lng": 126.63603}, {"name": "갈목", "lat": 36.08081, "lng": 126.62516}]}, {"id": "702_축협세안약국(오창동)", "anchors": [{"name": "서천터미널", "lat": 36.07552, "lng": 126.6971}, {"name": "계동", "lat": 36.06478, "lng": 126.70777}, {"name": "까치다리", "lat": 36.06027, "lng": 126.69882}, {"name": "마동", "lat": 36.07293, "lng": 126.65286}, {"name": "옥산", "lat": 36.06988, "lng": 126.65355}, {"name": "마동", "lat": 36.07293, "lng": 126.65286}, {"name": "하소", "lat": 36.06319, "lng": 126.64185}, {"name": "상소", "lat": 36.0681, "lng": 126.64192}, {"name": "와석", "lat": 36.07407, "lng": 126.63287}, {"name": "동지산", "lat": 36.0757, "lng": 126.63603}, {"name": "갈목", "lat": 36.08081, "lng": 126.62516}]}, {"id": "703_서천터미널", "anchors": [{"name": "서천터미널", "lat": 36.07552, "lng": 126.6971}, {"name": "하송", "lat": 36.0788, "lng": 126.66928}, {"name": "마동", "lat": 36.07293, "lng": 126.65286}, {"name": "하소", "lat": 36.06319, "lng": 126.64185}, {"name": "상소", "lat": 36.0681, "lng": 126.64192}, {"name": "서천터미널", "lat": 36.07552, "lng": 126.6971}, {"name": "계동", "lat": 36.06478, "lng": 126.70777}, {"name": "까치다리", "lat": 36.06027, "lng": 126.69882}, {"name": "하소", "lat": 36.06319, "lng": 126.64185}, {"name": "상소", "lat": 36.0681, "lng": 126.64192}, {"name": "와석", "lat": 36.07407, "lng": 126.63287}, {"name": "동지산", "lat": 36.0757, "lng": 126.63603}, {"name": "갈목", "lat": 36.08081, "lng": 126.62516}]}, {"id": "704_축협세안약국(오창동)", "anchors": [{"name": "서천터미널", "lat": 36.07552, "lng": 126.6971}, {"name": "계동", "lat": 36.06478, "lng": 126.70777}, {"name": "까치다리", "lat": 36.06027, "lng": 126.69882}, {"name": "옥산", "lat": 36.06988, "lng": 126.65355}, {"name": "하송", "lat": 36.0788, "lng": 126.66928}, {"name": "마동", "lat": 36.07293, "lng": 126.65286}, {"name": "갈목", "lat": 36.08081, "lng": 126.62516}]}, {"id": "802_서천터미널", "anchors": [{"name": "서천터미널", "lat": 36.07552, "lng": 126.6971}, {"name": "산천리", "lat": 36.10341, "lng": 126.66931}, {"name": "국립희리산자연휴양림", "lat": 36.10767, "lng": 126.66325}, {"name": "산천리", "lat": 36.10341, "lng": 126.66931}, {"name": "솟동매", "lat": 36.12048, "lng": 126.64128}, {"name": "원닥골", "lat": 36.15307, "lng": 126.61925}, {"name": "관적사입구", "lat": 36.14738, "lng": 126.60788}, {"name": "비인면행정복지센터", "lat": 36.14197, "lng": 126.60077}]}, {"id": "L802_비인면행정복지센터", "anchors": [{"name": "비인면행정복지센터", "lat": 36.14197, "lng": 126.60077}, {"name": "관적사입구", "lat": 36.14738, "lng": 126.60788}, {"name": "원닥골", "lat": 36.15307, "lng": 126.61925}, {"name": "솟동매", "lat": 36.12048, "lng": 126.64128}, {"name": "산천리", "lat": 36.10341, "lng": 126.66931}, {"name": "국립희리산자연휴양림", "lat": 36.10767, "lng": 126.66325}, {"name": "산천리", "lat": 36.10341, "lng": 126.66931}, {"name": "서천터미널", "lat": 36.07552, "lng": 126.6971}]}, {"id": "803_서천터미널", "anchors": [{"name": "서천터미널", "lat": 36.07552, "lng": 126.6971}, {"name": "산천리", "lat": 36.10341, "lng": 126.66931}, {"name": "국립희리산자연휴양림", "lat": 36.10767, "lng": 126.66325}, {"name": "산천리", "lat": 36.10341, "lng": 126.66931}, {"name": "솟동매", "lat": 36.12048, "lng": 126.64128}]}, {"id": "804_비인면행정복지센터", "anchors": [{"name": "비인면행정복지센터", "lat": 36.14197, "lng": 126.60077}, {"name": "월하성", "lat": 36.13525, "lng": 126.56335}, {"name": "배다리", "lat": 36.15492, "lng": 126.5715}, {"name": "비인면행정복지센터", "lat": 36.14197, "lng": 126.60077}]}, {"id": "805_비인면행정복지센터", "anchors": [{"name": "비인면행정복지센터", "lat": 36.14197, "lng": 126.60077}, {"name": "칠성바위", "lat": 36.16267, "lng": 126.58358}, {"name": "월하성", "lat": 36.13525, "lng": 126.56335}, {"name": "비인면행정복지센터", "lat": 36.14197, "lng": 126.60077}]}, {"id": "806_서천터미널", "anchors": [{"name": "서천터미널", "lat": 36.07552, "lng": 126.6971}, {"name": "산천리", "lat": 36.10341, "lng": 126.66931}, {"name": "국립희리산자연휴양림", "lat": 36.10767, "lng": 126.66325}, {"name": "산천리", "lat": 36.10341, "lng": 126.66931}, {"name": "관리", "lat": 36.12172, "lng": 126.61612}, {"name": "비인면행정복지센터", "lat": 36.14197, "lng": 126.60077}]}, {"id": "L806_비인면행정복지센터", "anchors": [{"name": "비인면행정복지센터", "lat": 36.14197, "lng": 126.60077}, {"name": "관리", "lat": 36.12172, "lng": 126.61612}, {"name": "산천리", "lat": 36.10341, "lng": 126.66931}, {"name": "국립희리산자연휴양림", "lat": 36.10767, "lng": 126.66325}, {"name": "산천리", "lat": 36.10341, "lng": 126.66931}, {"name": "서천터미널", "lat": 36.07552, "lng": 126.6971}]}, {"id": "314_부여여객", "anchors": [{"name": "강산굴", "lat": 36.07442, "lng": 126.84138}, {"name": "동자북", "lat": 36.08523, "lng": 126.81435}, {"name": "한산공용터미널", "lat": 36.08431, "lng": 126.80338}]}, {"id": "L314_한산공용터미널", "anchors": [{"name": "한산공용터미널", "lat": 36.08431, "lng": 126.80338}, {"name": "동자북", "lat": 36.08523, "lng": 126.81435}, {"name": "강산굴", "lat": 36.07442, "lng": 126.84138}]}, {"id": "314-1_부여여객", "anchors": [{"name": "토산리입구", "lat": 36.09012, "lng": 126.84468}, {"name": "한산공용터미널", "lat": 36.08431, "lng": 126.80338}]}, {"id": "503_CGV 풍합(왕복)", "anchors": [{"name": "비인면행정복지센터", "lat": 36.14197, "lng": 126.60077}, {"name": "비인중학교", "lat": 36.13887, "lng": 126.60488}]}, {"id": "503 접동골_CGV 접동골(왕복)", "anchors": [{"name": "비인면행정복지센터", "lat": 36.14197, "lng": 126.60077}, {"name": "비인중학교", "lat": 36.13887, "lng": 126.60488}]}, {"id": "503 주야리_CGV 주야리(왕복)", "anchors": [{"name": "비인면행정복지센터", "lat": 36.14197, "lng": 126.60077}, {"name": "비인중학교", "lat": 36.13887, "lng": 126.60488}]}, {"id": "510-1_CGV 구.대천역(왕복)", "anchors": [{"name": "미산면행정복지센터.내평리", "lat": 36.20952, "lng": 126.6758}, {"name": "못골", "lat": 36.1952, "lng": 126.67145}, {"name": "남심", "lat": 36.191, "lng": 126.67075}]}, {"id": "510-2_CGV 구.대천역(왕복)", "anchors": [{"name": "미산면행정복지센터.내평리", "lat": 36.20952, "lng": 126.6758}, {"name": "못골", "lat": 36.1952, "lng": 126.67145}, {"name": "남심", "lat": 36.191, "lng": 126.67075}, {"name": "판교역", "lat": 36.15466, "lng": 126.67981}]}, {"id": "71_미통주공1단지(왕복)", "anchors": [{"name": "경장사거리", "lat": 35.9739, "lng": 126.72879}, {"name": "롯데몰", "lat": 35.97578, "lng": 126.73945}, {"name": "구시장입구", "lat": 35.987, "lng": 126.7212}, {"name": "롯데몰", "lat": 35.97578, "lng": 126.73945}, {"name": "원수휴먼시아", "lat": 36.00767, "lng": 126.7069}, {"name": "장항읍행정복지센터", "lat": 36.01093, "lng": 126.70013}, {"name": "신부락", "lat": 36.0122, "lng": 126.69863}, {"name": "장항터미널", "lat": 36.01499, "lng": 126.69893}]}, {"id": "72_미통주공1단지(편도)", "anchors": [{"name": "경장사거리", "lat": 35.9739, "lng": 126.72879}, {"name": "롯데몰", "lat": 35.97578, "lng": 126.73945}, {"name": "하구둑", "lat": 36.0131, "lng": 126.75713}, {"name": "국립생태원", "lat": 36.02683, "lng": 126.71948}, {"name": "송내", "lat": 36.02814, "lng": 126.71338}, {"name": "계동", "lat": 36.06478, "lng": 126.70777}, {"name": "서천터미널", "lat": 36.07552, "lng": 126.6971}]}]